{"type":"FeatureCollection","features":[{"type":"Feature","properties":{"Name":"Strasbourg"},"geometry":{"coordinates":[7.750626248883492,48.58432307163977],"type":"Point"}},{"type":"Feature","properties":{"Name":"Neudorf"},"geometry":{"coordinates":[7.76129609976428,48.56989410899297],"type":"Point"},"id":1},{"type":"Feature","properties":{"Name":"Meinau"},"geometry":{"coordinates":[7.752003142226869,48.55292669177339],"type":"Point"}},{"type":"Feature","properties":{"Name":"Neuhof"},"geometry":{"coordinates":[7.767092679762754,48.541453452703564],"type":"Point"}},{"type":"Feature","properties":{"Name":"Robertsau"},"geometry":{"coordinates":[7.779864110069951,48.60274308968849],"type":"Point"}},{"type":"Feature","properties":{"Name":"Schiltigheim"},"geometry":{"coordinates":[7.748168410208621,48.60581464116558],"type":"Point"}},{"type":"Feature","properties":{"Name":"Bischeim"},"geometry":{"coordinates":[7.752651033957449,48.614019390698274],"type":"Point"}},{"type":"Feature","properties":{"Name":"Hoenheim"},"geometry":{"coordinates":[7.754619514875827,48.62012845767947],"type":"Point"}},{"type":"Feature","properties":{"Name":"Cronenbourg"},"geometry":{"coordinates":[7.7227867371505,48.59181503115741],"type":"Point"}},{"type":"Feature","properties":{"Name":"Koenigshoffen"},"geometry":{"coordinates":[7.712633487133388,48.579252264121436],"type":"Point"},"id":9},{"type":"Feature","properties":{"Name":"Montagne-Verte"},"geometry":{"coordinates":[7.720236736504859,48.571859369544],"type":"Point"}},{"type":"Feature","properties":{"Name":"Port de Strasbourg"},"geometry":{"coordinates":[7.788142759572139,48.57520504809855],"type":"Point"}}]}